[
  {
    "id": 25,
    "location": {
      "lat": 33.9541909,
      "lng": -83.37526083
    },
    "name": "Brooks Hall",
    "code": "0055",
    "abbreviation": "",
    "address": "310 Herty Dr.",
    "city": "Athens",
    "state": "Georgia",
    "zip": 30602,
    "country": "United States of America",
    "img": "",
    "searchText": "Brooks Hall #0055",
    "categories": "Building",
    "campuses": "",
    "info": "",
    "phone": "",
    "website": "",
    "email": "",
    "green": "",
    "st_latitude": 33.9542674,
    "st_longitude": -83.3748274,
    "st_heading": 269.63,
    "categoriesId": "Building"
  },
  {
    "id": 1,
    "location": {
      "lat": 33.94177382,
      "lng": -83.37296633
    },
    "name": "Aderhold",
    "code": "1060",
    "abbreviation": "",
    "address": "110 Carlton St.",
    "city": "Athens",
    "state": "Georgia",
    "zip": 30602,
    "country": "United States of America",
    "img": "",
    "searchText": "Aderhold #1060",
    "categories": "Building",
    "campuses": "",
    "info": "",
    "phone": "",
    "website": "",
    "email": "",
    "green": "",
    "st_latitude": 33.941425,
    "st_longitude": -83.373089,
    "st_heading": 14,
    "categoriesId": "Building"
  },
  {
    "id": 101,
    "location": {
      "lat": 33.94110756,
      "lng": -83.3701541
    },
    "name": "Georgia Museum of Art",
    "code": "1693",
    "abbreviation": "",
    "address": "90 Carlton St.",
    "city": "Athens",
    "state": "Georgia",
    "zip": 30602,
    "country": "United States of America",
    "img": "",
    "searchText": "Georgia Museum of Art #1693",
    "categories": "Building",
    "campuses": "",
    "info": "",
    "phone": "",
    "website": "",
    "email": "",
    "green": "",
    "st_latitude": 33.9407818,
    "st_longitude": -83.3710686,
    "st_heading": 67.29,
    "categoriesId": "Building"
  },
  {
    "id": 32,
    "location": {
      "lat": 33.95489823,
      "lng": -83.375299
    },
    "name": "Caldwell Hall",
    "code": "0046",
    "abbreviation": "",
    "address": "302 Herty Dr.",
    "city": "Athens",
    "state": "Georgia",
    "zip": 30602,
    "country": "United States of America",
    "img": "",
    "searchText": "Caldwell Hall #0046",
    "categories": "Building",
    "campuses": "",
    "info": "",
    "phone": "",
    "website": "",
    "email": "",
    "green": "",
    "st_latitude": 33.954933,
    "st_longitude": -83.375078,
    "st_heading": -108,
    "categoriesId": "Building"
  },
  {
    "id": 225,
    "location": {
      "lat": 33.94472428,
      "lng": -83.37639234
    },
    "name": "Snelling Dining Hall",
    "code": "1643",
    "abbreviation": "",
    "address": "200 West Green St",
    "city": "Athens",
    "state": "Georgia",
    "zip": 30602,
    "country": "United States of America",
    "img": "",
    "searchText": "Snelling Dining Hall #1643",
    "categories": "Building",
    "campuses": "",
    "info": "",
    "phone": "",
    "website": "",
    "email": "",
    "green": "",
    "st_latitude": 33.944933,
    "st_longitude": -83.376536,
    "st_heading": 156,
    "categoriesId": "Building"
  },
  {
    "id": 46,
    "location": {
      "lat": 33.94849115,
      "lng": -83.37412107
    },
    "name": "Chemistry",
    "code": "1001",
    "abbreviation": "",
    "address": "140 Cedar St.",
    "city": "Athens",
    "state": "Georgia",
    "zip": 30602,
    "country": "United States of America",
    "img": "",
    "searchText": "Chemistry #1001",
    "categories": "Building",
    "campuses": "",
    "info": "",
    "phone": "",
    "website": "",
    "email": "",
    "green": "",
    "st_latitude": 33.948025,
    "st_longitude": -83.373792,
    "st_heading": 13,
    "categoriesId": "Building"
  },
  {
    "id": 236,
    "location": {
      "lat": 33.94518817,
      "lng": -83.37185316
    },
    "name": "Statistics & Computer Services",
    "code": "1130",
    "abbreviation": "",
    "address": "101 Cedar St.",
    "city": "Athens",
    "state": "Georgia",
    "zip": 30602,
    "country": "United States of America",
    "img": "",
    "searchText": "Statistics & Computer Services #1130",
    "categories": "Building",
    "campuses": "",
    "info": "",
    "phone": "",
    "website": "",
    "email": "",
    "green": "",
    "st_latitude": 33.945056,
    "st_longitude": -83.371378,
    "st_heading": -66,
    "categoriesId": "Building"
  },
  {
    "id": 50,
    "location": {
      "lat": 33.94896705,
      "lng": -83.3782837
    },
    "name": "Church Hall",
    "code": "2215",
    "abbreviation": "",
    "address": "880 S. Lumpkin St.",
    "city": "Athens",
    "state": "Georgia",
    "zip": 30602,
    "country": "United States of America",
    "img": "",
    "searchText": "Church Hall #2215",
    "categories": "Building",
    "campuses": "",
    "info": "",
    "phone": "",
    "website": "",
    "email": "",
    "green": "",
    "st_latitude": 33.948769,
    "st_longitude": -83.378369,
    "st_heading": 7,
    "categoriesId": "Building"
  },
  {
    "id": 75,
    "location": {
      "lat": 33.94434657,
      "lng": -83.3732811
    },
    "name": "Ecology",
    "code": "1033",
    "abbreviation": "",
    "address": "140 East Green St.",
    "city": "Athens",
    "state": "Georgia",
    "zip": 30602,
    "country": "United States of America",
    "img": "",
    "searchText": "Ecology #1033",
    "categories": "Building",
    "campuses": "",
    "info": "",
    "phone": "",
    "website": "",
    "email": "",
    "green": "",
    "st_latitude": 33.944331,
    "st_longitude": -83.373944,
    "st_heading": 107,
    "categoriesId": "Building"
  },
  {
    "id": 83,
    "location": {
      "lat": 33.95250989,
      "lng": -83.3758767
    },
    "name": "Fine Arts Building",
    "code": "0060",
    "abbreviation": "",
    "address": "255 Baldwin St.",
    "city": "Athens",
    "state": "Georgia",
    "zip": 30602,
    "country": "United States of America",
    "img": "",
    "searchText": "Fine Arts Building #0060",
    "categories": "Building",
    "campuses": "",
    "info": "",
    "phone": "",
    "website": "",
    "email": "",
    "green": "",
    "st_latitude": 33.952932,
    "st_longitude": -83.3758682,
    "st_heading": 181.28,
    "categoriesId": "Building"
  }
]